{"data":[{"DateDonation":"2020-08-05T00:00:00","FromHour":"16:30","ToHour":"19:00","Name":"התרמה במועדון הקיבוץ","City":"בית קמה","Street":"","NumHouse":"","AccountType":"","lon":34.762248,"lat":31.446566},{"DateDonation":"2020-08-05T00:00:00","FromHour":"15:00","ToHour":"20:00","Name":"בית העם מושב גילת","City":"גילת","Street":"","NumHouse":"","AccountType":"","lon":34.65165229999999,"lat":31.3310696},{"DateDonation":"2020-08-05T00:00:00","FromHour":"08:00","ToHour":"14:30","Name":"","City":"רמת גן","Street":"בית חולים תה\"ש","NumHouse":"","AccountType":" - שרותי הדם מד\"א","lon":34.824785,"lat":32.068424},{"DateDonation":"2020-08-05T00:00:00","FromHour":"12:30","ToHour":"18:00","Name":"ביג קרית מלאכי","City":"באר טוביה","Street":"א.ת.","NumHouse":"","AccountType":"","lon":34.7550479,"lat":31.7280171},{"DateDonation":"2020-08-05T00:00:00","FromHour":"15:00","ToHour":"21:00","Name":"ליד המועצה","City":"משהד","Street":"","NumHouse":"","AccountType":"","lon":35.322494,"lat":32.738912},{"DateDonation":"2020-08-05T00:00:00","FromHour":"16:00","ToHour":"21:00","Name":"מודיעין סנטר","City":"מודיעין מכבים רעות","Street":"צאלון","NumHouse":"21","AccountType":"","lon":35.016995,"lat":31.9058171},{"DateDonation":"2020-08-05T00:00:00","FromHour":"11:00","ToHour":"18:00","Name":"משביר י-ם","City":"ירושלים","Street":"המלך ג'ורג'","NumHouse":"20","AccountType":"","lon":35.1865447,"lat":31.7520627},{"DateDonation":"2020-08-05T00:00:00","FromHour":"16:00","ToHour":"20:00","Name":"  מועדון                                             ","City":"רמות","Street":"","NumHouse":"","AccountType":"","lon":0,"lat":0},{"DateDonation":"2020-08-05T00:00:00","FromHour":"14:00","ToHour":"20:00","Name":"קניון T.L.V","City":"תל אביב יפו","Street":"החשמונאים","NumHouse":"96","AccountType":"","lon":34.7835404,"lat":32.0685633},{"DateDonation":"2020-08-05T00:00:00","FromHour":"09:00","ToHour":"15:00","Name":"חוצות המפרץ ליד גרג","City":"חיפה","Street":"","NumHouse":"","AccountType":"","lon":35.0557838,"lat":32.8092185},{"DateDonation":"2020-08-05T00:00:00","FromHour":"15:30","ToHour":"21:30","Name":"קניון הזהב                             ","City":"ראשון לציון","Street":"סחרוב","NumHouse":"","AccountType":"","lon":34.774242,"lat":31.9913925},{"DateDonation":"2020-08-05T00:00:00","FromHour":"10:00","ToHour":"16:00","Name":"שער ריגר אוניברסיטה","City":"באר שבע","Street":"","NumHouse":"","AccountType":"","lon":34.801461,"lat":31.262218},{"DateDonation":"2020-08-05T00:00:00","FromHour":"15:00","ToHour":"20:00","Name":"מרכז צים בחניה","City":"בית שאן","Street":"","NumHouse":"","AccountType":"","lon":35.50091,"lat":32.5101336},{"DateDonation":"2020-08-05T00:00:00","FromHour":"16:00","ToHour":"21:30","Name":"מתחם שרונים","City":"הוד השרון","Street":"הרקון","NumHouse":"2","AccountType":"","lon":34.9012534,"lat":32.1332427},{"DateDonation":"2020-08-06T00:00:00","FromHour":"09:30","ToHour":"19:30","Name":"  תחנה מרכזית                                  ","City":"באר שבע","Street":"יצחק בן צבי","NumHouse":"","AccountType":"","lon":34.796741,"lat":31.243017},{"DateDonation":"2020-08-06T00:00:00","FromHour":"10:00","ToHour":"21:30","Name":"מתחם סנטרו רחובות","City":"רחובות","Street":"מוטי קינד","NumHouse":"10","AccountType":"","lon":34.7889089,"lat":31.8938526},{"DateDonation":"2020-08-06T00:00:00","FromHour":"16:00","ToHour":"21:30","Name":"רחבת בית יד לבנים                                  ","City":"רעננה","Street":"אחוזה","NumHouse":"147","AccountType":"","lon":34.8711078,"lat":32.1804736},{"DateDonation":"2020-08-06T00:00:00","FromHour":"10:00","ToHour":"17:00","Name":"תחנה מרכזית                               ","City":"עפולה","Street":"קהילת ציון ","NumHouse":"2","AccountType":"","lon":35.292171,"lat":32.607536},{"DateDonation":"2020-08-06T00:00:00","FromHour":"09:00","ToHour":"15:00","Name":"המרכז הרפואי זיו","City":"צפת","Street":"","NumHouse":"","AccountType":"","lon":35.492657,"lat":32.954157},{"DateDonation":"2020-08-06T00:00:00","FromHour":"15:30","ToHour":"21:30","Name":"  כיכר העצמאות ליד פיצה האט                          ","City":"נתניה","Street":"","NumHouse":"","AccountType":"","lon":34.8515517,"lat":32.3307915},{"DateDonation":"2020-08-06T00:00:00","FromHour":"17:00","ToHour":"22:00","Name":"רב תכליתי","City":"נוקדים","Street":"","NumHouse":"","AccountType":"","lon":35.244064,"lat":31.645331},{"DateDonation":"2020-08-06T00:00:00","FromHour":"11:00","ToHour":"18:00","Name":"משביר י-ם","City":"ירושלים","Street":"המלך ג'ורג'","NumHouse":"20","AccountType":"","lon":35.1865447,"lat":31.7520627},{"DateDonation":"2020-08-06T00:00:00","FromHour":"09:00","ToHour":"16:00","Name":"  המ'ג 7 רוממה                                       ","City":"ירושלים","Street":"המ\"ג","NumHouse":"7","AccountType":" - תחנת מד\"א","lon":35.2001065,"lat":31.7904656},{"DateDonation":"2020-08-06T00:00:00","FromHour":"16:00","ToHour":"22:00","Name":"נירית","City":"נירית","Street":"","NumHouse":"","AccountType":"","lon":34.984822,"lat":32.146206},{"DateDonation":"2020-08-06T00:00:00","FromHour":"09:00","ToHour":"21:00","Name":"דודג' סנטר                            ","City":"נצרת עילית","Street":"","NumHouse":"","AccountType":"","lon":35.3036111,"lat":32.6933333},{"DateDonation":"2020-08-06T00:00:00","FromHour":"09:00","ToHour":"21:00","Name":"ליד המועצה","City":"טורעאן","Street":"","NumHouse":"","AccountType":"","lon":35.378344,"lat":32.775137},{"DateDonation":"2020-08-06T00:00:00","FromHour":"16:00","ToHour":"21:00","Name":"אבן שמואל בית תרבות","City":"אבן שמואל","Street":"","NumHouse":"","AccountType":"","lon":34.764283,"lat":31.5781612},{"DateDonation":"2020-08-06T00:00:00","FromHour":"15:00","ToHour":"21:00","Name":"מרכז צעירים","City":"אכסאל","Street":"","NumHouse":"","AccountType":"","lon":35.320743,"lat":32.682085},{"DateDonation":"2020-08-06T00:00:00","FromHour":"10:00","ToHour":"18:00","Name":"הצוות הקרואן ליד הדגלים","City":"באר שבע","Street":"","NumHouse":"","AccountType":"","lon":34.791462,"lat":31.252973},{"DateDonation":"2020-08-06T00:00:00","FromHour":"08:00","ToHour":"14:30","Name":"","City":"רמת גן","Street":"בית חולים תה\"ש","NumHouse":"","AccountType":" - שרותי הדם מד\"א","lon":34.824785,"lat":32.068424},{"DateDonation":"2020-08-06T00:00:00","FromHour":"15:00","ToHour":"20:00","Name":"","City":"מגדל העמק","Street":"","NumHouse":"","AccountType":"","lon":35.2417497,"lat":32.6778114},{"DateDonation":"2020-08-06T00:00:00","FromHour":"10:00","ToHour":"15:30","Name":"מגן דוד אדום כסיפה","City":"כסיפה","Street":"","NumHouse":"","AccountType":"","lon":34.7920168,"lat":31.2486618},{"DateDonation":"2020-08-06T00:00:00","FromHour":"15:00","ToHour":"19:30","Name":"התרמה במועדון הקיבוץ","City":"פני חבר","Street":"","NumHouse":"","AccountType":"","lon":35.1651,"lat":31.487074},{"DateDonation":"2020-08-06T00:00:00","FromHour":"10:00","ToHour":"16:00","Name":"לייד קפה גרג","City":"באר טוביה","Street":"","NumHouse":"","AccountType":"","lon":34.8099761,"lat":31.2422217},{"DateDonation":"2020-08-07T00:00:00","FromHour":"08:00","ToHour":"12:30","Name":"","City":"חולון","Street":"הרוקמים","NumHouse":"1","AccountType":" - תחנת מד\"א","lon":34.787384,"lat":32.015833},{"DateDonation":"2020-08-07T00:00:00","FromHour":"08:00","ToHour":"12:30","Name":"","City":"קרית מוצקין","Street":"החשמונאים","NumHouse":"75","AccountType":" - תחנת מד\"א","lon":35.079523,"lat":32.838202},{"DateDonation":"2020-08-07T00:00:00","FromHour":"08:00","ToHour":"12:30","Name":"","City":"רחובות","Street":"0363","NumHouse":"69","AccountType":" - תחנת מד\"א","lon":34.80682420000001,"lat":31.8933068},{"DateDonation":"2020-08-07T00:00:00","FromHour":"08:00","ToHour":"12:30","Name":"","City":"רמת גן","Street":"בית חולים תה\"ש","NumHouse":"","AccountType":" - שרותי הדם מד\"א","lon":34.824785,"lat":32.068424},{"DateDonation":"2020-08-07T00:00:00","FromHour":"08:00","ToHour":"12:30","Name":"","City":"חיפה","Street":"יצחק שדה","NumHouse":"10","AccountType":" - תחנת מד\"א","lon":34.989571,"lat":32.7940463},{"DateDonation":"2020-08-07T00:00:00","FromHour":"08:00","ToHour":"12:30","Name":"  ביג יקנעם בכניסה                                  ","City":"יקנעם","Street":"","NumHouse":"","AccountType":"","lon":35.0927494,"lat":32.6426784},{"DateDonation":"2020-08-07T00:00:00","FromHour":"08:30","ToHour":"12:30","Name":"  במועדון                                            ","City":"שובל","Street":"ד.נ.הנגב","NumHouse":"","AccountType":"","lon":0,"lat":0},{"DateDonation":"2020-08-07T00:00:00","FromHour":"08:30","ToHour":"13:30","Name":"  שכ' נוה אפק                                        ","City":"ראש העין","Street":"בזק פינת ברקן","NumHouse":"","AccountType":"","lon":34.978091,"lat":32.094259},{"DateDonation":"2020-08-07T00:00:00","FromHour":"08:00","ToHour":"12:30","Name":"  המ'ג 7 רוממה                                       ","City":"ירושלים","Street":"המ\"ג","NumHouse":"7","AccountType":" - תחנת מד\"א","lon":35.2001065,"lat":31.7904656},{"DateDonation":"2020-08-07T00:00:00","FromHour":"09:00","ToHour":"12:45","Name":"משביר י-ם","City":"ירושלים","Street":"המלך ג'ורג'","NumHouse":"20","AccountType":"","lon":35.1865447,"lat":31.7520627},{"DateDonation":"2020-08-07T00:00:00","FromHour":"08:30","ToHour":"12:30","Name":"תחנת מגן דוד אדום","City":"טבריה","Street":"הבנים מול מלון לאונרדו","NumHouse":"1","AccountType":" - תחנת מד\"א","lon":35.5407268,"lat":32.785899},{"DateDonation":"2020-08-07T00:00:00","FromHour":"08:30","ToHour":"13:30","Name":"קניון הזהב                             ","City":"ראשון לציון","Street":"סחרוב","NumHouse":"","AccountType":"","lon":34.774242,"lat":31.9913925},{"DateDonation":"2020-08-07T00:00:00","FromHour":"08:30","ToHour":"13:30","Name":"כיכר העיר","City":"כפר סבא","Street":"ויצמן","NumHouse":"63","AccountType":"","lon":34.9123142,"lat":32.1746641},{"DateDonation":"2020-08-07T00:00:00","FromHour":"08:30","ToHour":"13:00","Name":"  תחנה מרכזית                                  ","City":"באר שבע","Street":"יצחק בן צבי","NumHouse":"","AccountType":"","lon":34.796741,"lat":31.243017},{"DateDonation":"2020-08-09T00:00:00","FromHour":"15:00","ToHour":"21:00","Name":"מתנ\"ס יהוד","City":"יהוד","Street":"רם כהן","NumHouse":"5","AccountType":"","lon":34.8924921,"lat":32.0405792},{"DateDonation":"2020-08-09T00:00:00","FromHour":"10:00","ToHour":"17:00","Name":"  תחנה מרכזית                                  ","City":"באר שבע","Street":"יצחק בן צבי","NumHouse":"","AccountType":"","lon":34.796741,"lat":31.243017},{"DateDonation":"2020-08-09T00:00:00","FromHour":"10:00","ToHour":"18:00","Name":"משביר י-ם","City":"ירושלים","Street":"המלך ג'ורג'","NumHouse":"20","AccountType":"","lon":35.1865447,"lat":31.7520627},{"DateDonation":"2020-08-09T00:00:00","FromHour":"08:00","ToHour":"16:45","Name":"  המ'ג 7 רוממה                                       ","City":"ירושלים","Street":"המ\"ג","NumHouse":"7","AccountType":" - תחנת מד\"א","lon":35.2001065,"lat":31.7904656},{"DateDonation":"2020-08-09T00:00:00","FromHour":"12:00","ToHour":"18:00","Name":"  מתנ\"ס חורה                                         ","City":"חורה","Street":"","NumHouse":"","AccountType":"","lon":34.93991580000001,"lat":31.2988484},{"DateDonation":"2020-08-09T00:00:00","FromHour":"10:00","ToHour":"16:00","Name":"קרואן ברחבת בית משפט -ליד קניון קרית הממשלה.","City":"באר שבע","Street":"","NumHouse":"","AccountType":"","lon":34.77447799999999,"lat":31.248813},{"DateDonation":"2020-08-09T00:00:00","FromHour":"09:30","ToHour":"15:00","Name":"ביה\"ח סורוקה ליד בית מרקחת מול חדר אוכל עובדים","City":"באר שבע","Street":"","NumHouse":"","AccountType":"","lon":34.7994009,"lat":31.2580633},{"DateDonation":"2020-08-09T00:00:00","FromHour":"16:30","ToHour":"20:30","Name":"  מועדון                                             ","City":"בית אלפא","Street":"","NumHouse":"","AccountType":"","lon":35.057633,"lat":32.834353},{"DateDonation":"2020-08-09T00:00:00","FromHour":"08:00","ToHour":"14:30","Name":"","City":"רמת גן","Street":"בית חולים תה\"ש","NumHouse":"","AccountType":" - שרותי הדם מד\"א","lon":34.824785,"lat":32.068424},{"DateDonation":"2020-08-09T00:00:00","FromHour":"16:30","ToHour":"19:00","Name":"התרמה במועדון הקיבוץ","City":"צוחר","Street":"","NumHouse":"","AccountType":"","lon":34.426444,"lat":31.23717},{"DateDonation":"2020-08-09T00:00:00","FromHour":"15:30","ToHour":"19:00","Name":"התרמת דם תתקיים במועדון הישובי","City":"","Street":"","NumHouse":"","AccountType":"","lon":0,"lat":0},{"DateDonation":"2020-08-10T00:00:00","FromHour":"08:00","ToHour":"14:30","Name":"","City":"רמת גן","Street":"בית חולים תה\"ש","NumHouse":"","AccountType":" - שרותי הדם מד\"א","lon":34.824785,"lat":32.068424},{"DateDonation":"2020-08-10T00:00:00","FromHour":"16:00","ToHour":"22:00","Name":"  מתנ\"ס קדימה                                        ","City":"קדימה צורן","Street":"בן צבי","NumHouse":"61","AccountType":"","lon":34.9114799,"lat":32.2751274},{"DateDonation":"2020-08-10T00:00:00","FromHour":"10:00","ToHour":"16:30","Name":"משביר י-ם","City":"ירושלים","Street":"המלך ג'ורג'","NumHouse":"20","AccountType":"","lon":35.1865447,"lat":31.7520627},{"DateDonation":"2020-08-10T00:00:00","FromHour":"17:00","ToHour":"21:30","Name":"  מועדון הפיס                                        ","City":"תקוע","Street":"מועדון הפיס","NumHouse":"","AccountType":"","lon":35.4529057,"lat":32.242069},{"DateDonation":"2020-08-10T00:00:00","FromHour":"10:00","ToHour":"17:00","Name":"  תחנה מרכזית                                  ","City":"באר שבע","Street":"יצחק בן צבי","NumHouse":"","AccountType":"","lon":34.796741,"lat":31.243017},{"DateDonation":"2020-08-11T00:00:00","FromHour":"10:00","ToHour":"17:00","Name":"  תחנה מרכזית                                  ","City":"באר שבע","Street":"יצחק בן צבי","NumHouse":"","AccountType":"","lon":34.796741,"lat":31.243017},{"DateDonation":"2020-08-11T00:00:00","FromHour":"14:30","ToHour":"21:00","Name":"הישפרו-פאוור סנטר נס ציונה","City":"נס ציונה","Street":"הפטיש","NumHouse":"6","AccountType":"","lon":34.7926425,"lat":31.9208791},{"DateDonation":"2020-08-11T00:00:00","FromHour":"17:30","ToHour":"21:30","Name":"מועדון 50+                                        ","City":"הר אדר","Street":"","NumHouse":"","AccountType":"","lon":35.1309902,"lat":31.8268244},{"DateDonation":"2020-08-11T00:00:00","FromHour":"10:00","ToHour":"16:30","Name":"משביר י-ם","City":"ירושלים","Street":"המלך ג'ורג'","NumHouse":"20","AccountType":"","lon":35.1865447,"lat":31.7520627},{"DateDonation":"2020-08-11T00:00:00","FromHour":"13:00","ToHour":"20:00","Name":"  המ'ג 7 רוממה                                       ","City":"ירושלים","Street":"המ\"ג","NumHouse":"7","AccountType":" - תחנת מד\"א","lon":35.2001065,"lat":31.7904656},{"DateDonation":"2020-08-11T00:00:00","FromHour":"16:00","ToHour":"21:00","Name":"מועדון לחבר","City":"שריד","Street":"","NumHouse":"","AccountType":"","lon":35.2247569,"lat":32.663061},{"DateDonation":"2020-08-11T00:00:00","FromHour":"08:00","ToHour":"18:00","Name":"","City":"רמת גן","Street":"בית חולים תה\"ש","NumHouse":"","AccountType":" - שרותי הדם מד\"א","lon":34.824785,"lat":32.068424},{"DateDonation":"2020-08-11T00:00:00","FromHour":"10:00","ToHour":"17:00","Name":"קרואן בעיר הבהדים","City":"","Street":"","NumHouse":"","AccountType":"","lon":34.838512,"lat":31.058584},{"DateDonation":"2020-08-12T00:00:00","FromHour":"08:00","ToHour":"14:30","Name":"","City":"רמת גן","Street":"בית חולים תה\"ש","NumHouse":"","AccountType":" - שרותי הדם מד\"א","lon":34.824785,"lat":32.068424},{"DateDonation":"2020-08-12T00:00:00","FromHour":"09:30","ToHour":"16:00","Name":"  ינ\"ט דימונה                                        ","City":"דימונה","Street":"","NumHouse":"","AccountType":"","lon":35.033363,"lat":31.069419},{"DateDonation":"2020-08-12T00:00:00","FromHour":"15:30","ToHour":"19:00","Name":"  במרפאה אזורית                                      ","City":"יטבתה","Street":"ד.נ.אילות","NumHouse":"","AccountType":"","lon":35.059227,"lat":29.896322},{"DateDonation":"2020-08-12T00:00:00","FromHour":"09:00","ToHour":"16:00","Name":"  המ'ג 7 רוממה                                       ","City":"ירושלים","Street":"המ\"ג","NumHouse":"7","AccountType":" - תחנת מד\"א","lon":35.2001065,"lat":31.7904656},{"DateDonation":"2020-08-12T00:00:00","FromHour":"10:00","ToHour":"16:30","Name":"משביר י-ם","City":"ירושלים","Street":"המלך ג'ורג'","NumHouse":"20","AccountType":"","lon":35.1865447,"lat":31.7520627},{"DateDonation":"2020-08-13T00:00:00","FromHour":"10:00","ToHour":"16:30","Name":"משביר י-ם","City":"ירושלים","Street":"המלך ג'ורג'","NumHouse":"20","AccountType":"","lon":35.1865447,"lat":31.7520627},{"DateDonation":"2020-08-13T00:00:00","FromHour":"09:00","ToHour":"16:00","Name":"  המ'ג 7 רוממה                                       ","City":"ירושלים","Street":"המ\"ג","NumHouse":"7","AccountType":" - תחנת מד\"א","lon":35.2001065,"lat":31.7904656},{"DateDonation":"2020-08-13T00:00:00","FromHour":"16:00","ToHour":"21:00","Name":"במועדון ליד המזכירות","City":"הר גילה","Street":"","NumHouse":"","AccountType":"","lon":35.171491,"lat":31.722058},{"DateDonation":"2020-08-13T00:00:00","FromHour":"15:30","ToHour":"22:30","Name":"שבט צופי חולון","City":"חולון","Street":"העלייה השניה ","NumHouse":"43","AccountType":"","lon":34.7942134,"lat":32.0220613},{"DateDonation":"2020-08-13T00:00:00","FromHour":"15:30","ToHour":"21:30","Name":"  כיכר העצמאות ליד פיצה האט                          ","City":"נתניה","Street":"","NumHouse":"","AccountType":"","lon":34.8515517,"lat":32.3307915},{"DateDonation":"2020-08-13T00:00:00","FromHour":"17:00","ToHour":"22:00","Name":"מתנס רחוב התאנה","City":"גבעת זאב","Street":"","NumHouse":"","AccountType":"","lon":35.165537,"lat":31.8636748},{"DateDonation":"2020-08-13T00:00:00","FromHour":"16:00","ToHour":"21:00","Name":"מרכז קהילתי בארבור","City":"תל אביב יפו","Street":"דרך ההגנה ","NumHouse":"135","AccountType":"","lon":34.80178,"lat":32.0539332},{"DateDonation":"2020-08-13T00:00:00","FromHour":"08:30","ToHour":"13:00","Name":"  תחנה מרכזית                                  ","City":"באר שבע","Street":"יצחק בן צבי","NumHouse":"","AccountType":"","lon":34.796741,"lat":31.243017},{"DateDonation":"2020-08-13T00:00:00","FromHour":"10:00","ToHour":"17:00","Name":"  תחנה מרכזית                                  ","City":"באר שבע","Street":"יצחק בן צבי","NumHouse":"","AccountType":"","lon":34.796741,"lat":31.243017},{"DateDonation":"2020-08-13T00:00:00","FromHour":"17:00","ToHour":"22:30","Name":"מועדון נוער נוף איילון                                        ","City":"נוף איילון","Street":"","NumHouse":"","AccountType":"","lon":34.988682,"lat":31.8687711},{"DateDonation":"2020-08-13T00:00:00","FromHour":"15:00","ToHour":"21:00","Name":"מתנ\"ס בועיינה","City":"בועיינה נוג'יידאת","Street":"","NumHouse":"","AccountType":"","lon":35.363107,"lat":32.804166},{"DateDonation":"2020-08-13T00:00:00","FromHour":"16:00","ToHour":"19:00","Name":"  בחדר אוכל                                          ","City":"דבירה","Street":"ד.נ. נגב","NumHouse":"","AccountType":"","lon":34.825177,"lat":31.411699},{"DateDonation":"2020-08-13T00:00:00","FromHour":"16:00","ToHour":"21:00","Name":"  מועדון לחבר                                        ","City":"עין החורש","Street":"","NumHouse":"","AccountType":"","lon":34.9399951,"lat":32.3858728},{"DateDonation":"2020-08-13T00:00:00","FromHour":"16:00","ToHour":"20:00","Name":"  מועדון לחבר                                        ","City":"מזרע","Street":"","NumHouse":"","AccountType":"","lon":35.286404,"lat":32.649879},{"DateDonation":"2020-08-13T00:00:00","FromHour":"08:00","ToHour":"14:30","Name":"","City":"רמת גן","Street":"בית חולים תה\"ש","NumHouse":"","AccountType":" - שרותי הדם מד\"א","lon":34.824785,"lat":32.068424},{"DateDonation":"2020-08-13T00:00:00","FromHour":"15:00","ToHour":"19:00","Name":"התרמה במועדון","City":"צוחר","Street":"","NumHouse":"","AccountType":"","lon":34.426444,"lat":31.23717},{"DateDonation":"2020-08-14T00:00:00","FromHour":"08:00","ToHour":"12:30","Name":"","City":"חולון","Street":"הרוקמים","NumHouse":"1","AccountType":" - תחנת מד\"א","lon":34.787384,"lat":32.015833},{"DateDonation":"2020-08-14T00:00:00","FromHour":"08:00","ToHour":"12:30","Name":"","City":"רמת גן","Street":"בית חולים תה\"ש","NumHouse":"","AccountType":" - שרותי הדם מד\"א","lon":34.824785,"lat":32.068424},{"DateDonation":"2020-08-14T00:00:00","FromHour":"08:00","ToHour":"12:30","Name":"","City":"רחובות","Street":"0363","NumHouse":"69","AccountType":" - תחנת מד\"א","lon":34.80682420000001,"lat":31.8933068},{"DateDonation":"2020-08-14T00:00:00","FromHour":"08:30","ToHour":"13:00","Name":"  תחנה מרכזית                                  ","City":"באר שבע","Street":"יצחק בן צבי","NumHouse":"","AccountType":"","lon":34.796741,"lat":31.243017},{"DateDonation":"2020-08-14T00:00:00","FromHour":"09:00","ToHour":"13:30","Name":"כורזין ליד בנק הפועלים","City":"גבעתיים","Street":"כורזין","NumHouse":"","AccountType":"","lon":34.8161391,"lat":32.0597995},{"DateDonation":"2020-08-14T00:00:00","FromHour":"08:00","ToHour":"12:30","Name":"  רח' יצחק שדה 10, חיפה                              ","City":"חיפה","Street":"","NumHouse":"","AccountType":" - תחנת מד\"א","lon":34.9882598,"lat":32.824678},{"DateDonation":"2020-08-14T00:00:00","FromHour":"08:30","ToHour":"12:30","Name":"תחנת מגן דוד אדום","City":"טבריה","Street":"הבנים מול מלון לאונרדו","NumHouse":"1","AccountType":" - תחנת מד\"א","lon":35.5407268,"lat":32.785899},{"DateDonation":"2020-08-14T00:00:00","FromHour":"08:00","ToHour":"12:30","Name":"  רח' החשמונאים 75 מד\"א מוצקין                       ","City":"קרית מוצקין","Street":"החשמונאים","NumHouse":"75","AccountType":" - תחנת מד\"א","lon":35.0802042,"lat":32.8440668},{"DateDonation":"2020-08-14T00:00:00","FromHour":"08:00","ToHour":"12:30","Name":"  המ'ג 7 רוממה                                       ","City":"ירושלים","Street":"המ\"ג","NumHouse":"7","AccountType":" - תחנת מד\"א","lon":35.2001065,"lat":31.7904656},{"DateDonation":"2020-08-14T00:00:00","FromHour":"09:00","ToHour":"12:45","Name":"משביר י-ם","City":"ירושלים","Street":"המלך ג'ורג'","NumHouse":"20","AccountType":"","lon":35.1865447,"lat":31.7520627},{"DateDonation":"2020-08-16T00:00:00","FromHour":"10:00","ToHour":"18:00","Name":"משביר י-ם","City":"ירושלים","Street":"המלך ג'ורג'","NumHouse":"20","AccountType":"","lon":35.1865447,"lat":31.7520627},{"DateDonation":"2020-08-16T00:00:00","FromHour":"08:00","ToHour":"16:45","Name":"  המ'ג 7 רוממה                                       ","City":"ירושלים","Street":"המ\"ג","NumHouse":"7","AccountType":" - תחנת מד\"א","lon":35.2001065,"lat":31.7904656},{"DateDonation":"2020-08-16T00:00:00","FromHour":"16:30","ToHour":"21:30","Name":"מועדון הגדול","City":"יקיר","Street":"","NumHouse":"","AccountType":"","lon":0,"lat":0},{"DateDonation":"2020-08-16T00:00:00","FromHour":"15:00","ToHour":"21:00","Name":"מתנ\"ס פולג","City":"נתניה","Street":"בני ברמן","NumHouse":"7","AccountType":"","lon":34.853196,"lat":32.321458},{"DateDonation":"2020-08-16T00:00:00","FromHour":"08:00","ToHour":"14:30","Name":"","City":"רמת גן","Street":"בית חולים תה\"ש","NumHouse":"","AccountType":" - שרותי הדם מד\"א","lon":34.824785,"lat":32.068424},{"DateDonation":"2020-08-16T00:00:00","FromHour":"16:30","ToHour":"19:00","Name":"","City":"ניר יצחק","Street":"ד.נ. נגב","NumHouse":"","AccountType":"","lon":34.356702,"lat":31.23604},{"DateDonation":"2020-08-17T00:00:00","FromHour":"08:00","ToHour":"14:30","Name":"","City":"רמת גן","Street":"בית חולים תה\"ש","NumHouse":"","AccountType":" - שרותי הדם מד\"א","lon":34.824785,"lat":32.068424},{"DateDonation":"2020-08-17T00:00:00","FromHour":"16:00","ToHour":"21:30","Name":"מכון הרטמן","City":"ירושלים","Street":"גדליהו אלון","NumHouse":"13","AccountType":"","lon":35.2175688,"lat":31.7666098},{"DateDonation":"2020-08-17T00:00:00","FromHour":"10:00","ToHour":"18:00","Name":"משביר י-ם","City":"ירושלים","Street":"המלך ג'ורג'","NumHouse":"20","AccountType":"","lon":35.1865447,"lat":31.7520627},{"DateDonation":"2020-08-18T00:00:00","FromHour":"10:00","ToHour":"16:30","Name":"משביר י-ם","City":"ירושלים","Street":"המלך ג'ורג'","NumHouse":"20","AccountType":"","lon":35.1865447,"lat":31.7520627},{"DateDonation":"2020-08-18T00:00:00","FromHour":"13:00","ToHour":"20:00","Name":"  המ'ג 7 רוממה                                       ","City":"ירושלים","Street":"המ\"ג","NumHouse":"7","AccountType":" - תחנת מד\"א","lon":35.2001065,"lat":31.7904656},{"DateDonation":"2020-08-18T00:00:00","FromHour":"08:00","ToHour":"18:00","Name":"","City":"רמת גן","Street":"בית חולים תה\"ש","NumHouse":"","AccountType":" - שרותי הדם מד\"א","lon":34.824785,"lat":32.068424},{"DateDonation":"2020-08-18T00:00:00","FromHour":"17:00","ToHour":"21:00","Name":"  מועדון ותיקים                                      ","City":"כפר ברוך","Street":"","NumHouse":"","AccountType":"","lon":35.193078,"lat":32.646048},{"DateDonation":"2020-08-18T00:00:00","FromHour":"16:00","ToHour":"21:30","Name":"בית נחמיה","City":"בית נחמיה","Street":"","NumHouse":"","AccountType":"","lon":34.953835,"lat":31.977142},{"DateDonation":"2020-08-19T00:00:00","FromHour":"08:00","ToHour":"14:30","Name":"","City":"רמת גן","Street":"בית חולים תה\"ש","NumHouse":"","AccountType":" - שרותי הדם מד\"א","lon":34.824785,"lat":32.068424},{"DateDonation":"2020-08-19T00:00:00","FromHour":"09:00","ToHour":"16:00","Name":"  המ'ג 7 רוממה                                       ","City":"ירושלים","Street":"המ\"ג","NumHouse":"7","AccountType":" - תחנת מד\"א","lon":35.2001065,"lat":31.7904656},{"DateDonation":"2020-08-19T00:00:00","FromHour":"10:00","ToHour":"16:30","Name":"משביר י-ם","City":"ירושלים","Street":"המלך ג'ורג'","NumHouse":"20","AccountType":"","lon":35.1865447,"lat":31.7520627},{"DateDonation":"2020-08-20T00:00:00","FromHour":"10:00","ToHour":"16:30","Name":"משביר י-ם","City":"ירושלים","Street":"המלך ג'ורג'","NumHouse":"20","AccountType":"","lon":35.1865447,"lat":31.7520627},{"DateDonation":"2020-08-20T00:00:00","FromHour":"09:00","ToHour":"16:00","Name":"  המ'ג 7 רוממה                                       ","City":"ירושלים","Street":"המ\"ג","NumHouse":"7","AccountType":" - תחנת מד\"א","lon":35.2001065,"lat":31.7904656},{"DateDonation":"2020-08-20T00:00:00","FromHour":"08:00","ToHour":"14:30","Name":"","City":"רמת גן","Street":"בית חולים תה\"ש","NumHouse":"","AccountType":" - שרותי הדם מד\"א","lon":34.824785,"lat":32.068424},{"DateDonation":"2020-08-21T00:00:00","FromHour":"08:00","ToHour":"12:30","Name":"","City":"רמת גן","Street":"בית חולים תה\"ש","NumHouse":"","AccountType":" - שרותי הדם מד\"א","lon":34.824785,"lat":32.068424},{"DateDonation":"2020-08-21T00:00:00","FromHour":"08:00","ToHour":"12:30","Name":"","City":"רחובות","Street":"0363","NumHouse":"69","AccountType":" - תחנת מד\"א","lon":34.80682420000001,"lat":31.8933068},{"DateDonation":"2020-08-21T00:00:00","FromHour":"08:00","ToHour":"12:30","Name":"","City":"חולון","Street":"הרוקמים","NumHouse":"1","AccountType":" - תחנת מד\"א","lon":34.787384,"lat":32.015833},{"DateDonation":"2020-08-21T00:00:00","FromHour":"08:00","ToHour":"12:30","Name":"","City":"קרית מוצקין","Street":"החשמונאים","NumHouse":"75","AccountType":" - תחנת מד\"א","lon":35.079523,"lat":32.838202},{"DateDonation":"2020-08-21T00:00:00","FromHour":"07:30","ToHour":"12:30","Name":"  מועדון נוער                                        ","City":"תמרת","Street":"","NumHouse":"","AccountType":"","lon":35.2246614,"lat":32.7036047},{"DateDonation":"2020-08-21T00:00:00","FromHour":"08:00","ToHour":"12:30","Name":"","City":"חיפה","Street":"יצחק שדה","NumHouse":"10","AccountType":" - תחנת מד\"א","lon":34.989571,"lat":32.7940463},{"DateDonation":"2020-08-21T00:00:00","FromHour":"09:00","ToHour":"12:45","Name":"משביר י-ם","City":"ירושלים","Street":"המלך ג'ורג'","NumHouse":"20","AccountType":"","lon":35.1865447,"lat":31.7520627},{"DateDonation":"2020-08-21T00:00:00","FromHour":"08:00","ToHour":"12:30","Name":"  המ'ג 7 רוממה                                       ","City":"ירושלים","Street":"המ\"ג","NumHouse":"7","AccountType":" - תחנת מד\"א","lon":35.2001065,"lat":31.7904656},{"DateDonation":"2020-08-21T00:00:00","FromHour":"08:30","ToHour":"12:30","Name":"תחנת מגן דוד אדום","City":"טבריה","Street":"הבנים מול מלון לאונרדו","NumHouse":"1","AccountType":" - תחנת מד\"א","lon":35.5407268,"lat":32.785899},{"DateDonation":"2020-08-23T00:00:00","FromHour":"08:00","ToHour":"16:45","Name":"  המ'ג 7 רוממה                                       ","City":"ירושלים","Street":"המ\"ג","NumHouse":"7","AccountType":" - תחנת מד\"א","lon":35.2001065,"lat":31.7904656},{"DateDonation":"2020-08-23T00:00:00","FromHour":"10:00","ToHour":"16:30","Name":"משביר י-ם","City":"ירושלים","Street":"המלך ג'ורג'","NumHouse":"20","AccountType":"","lon":35.1865447,"lat":31.7520627},{"DateDonation":"2020-08-23T00:00:00","FromHour":"15:00","ToHour":"20:00","Name":"תחנת מד\"א נוף הגליל","City":"נצרת עילית","Street":"שד' מעלה יצחק","NumHouse":"","AccountType":" - תחנת מד\"א","lon":35.315935,"lat":32.699669},{"DateDonation":"2020-08-23T00:00:00","FromHour":"16:30","ToHour":"20:30","Name":"בית העם","City":"כפר יחזקאל","Street":"","NumHouse":"","AccountType":"","lon":35.3626061,"lat":32.5684768},{"DateDonation":"2020-08-23T00:00:00","FromHour":"08:00","ToHour":"14:30","Name":"","City":"רמת גן","Street":"בית חולים תה\"ש","NumHouse":"","AccountType":" - שרותי הדם מד\"א","lon":34.824785,"lat":32.068424},{"DateDonation":"2020-08-24T00:00:00","FromHour":"08:00","ToHour":"14:30","Name":"","City":"רמת גן","Street":"בית חולים תה\"ש","NumHouse":"","AccountType":" - שרותי הדם מד\"א","lon":34.824785,"lat":32.068424},{"DateDonation":"2020-08-24T00:00:00","FromHour":"16:00","ToHour":"21:00","Name":"נווה מונוסון","City":"","Street":"פנינים ","NumHouse":"2","AccountType":"","lon":34.872532,"lat":32.030357},{"DateDonation":"2020-08-24T00:00:00","FromHour":"10:00","ToHour":"16:30","Name":"משביר י-ם","City":"ירושלים","Street":"המלך ג'ורג'","NumHouse":"20","AccountType":"","lon":35.1865447,"lat":31.7520627},{"DateDonation":"2020-08-25T00:00:00","FromHour":"10:00","ToHour":"16:30","Name":"משביר י-ם","City":"ירושלים","Street":"המלך ג'ורג'","NumHouse":"20","AccountType":"","lon":35.1865447,"lat":31.7520627},{"DateDonation":"2020-08-25T00:00:00","FromHour":"13:00","ToHour":"20:00","Name":"  המ'ג 7 רוממה                                       ","City":"ירושלים","Street":"המ\"ג","NumHouse":"7","AccountType":" - תחנת מד\"א","lon":35.2001065,"lat":31.7904656},{"DateDonation":"2020-08-25T00:00:00","FromHour":"08:00","ToHour":"18:00","Name":"","City":"רמת גן","Street":"בית חולים תה\"ש","NumHouse":"","AccountType":" - שרותי הדם מד\"א","lon":34.824785,"lat":32.068424},{"DateDonation":"2020-08-26T00:00:00","FromHour":"08:00","ToHour":"14:30","Name":"","City":"רמת גן","Street":"בית חולים תה\"ש","NumHouse":"","AccountType":" - שרותי הדם מד\"א","lon":34.824785,"lat":32.068424},{"DateDonation":"2020-08-26T00:00:00","FromHour":"09:00","ToHour":"16:00","Name":"  המ'ג 7 רוממה                                       ","City":"ירושלים","Street":"המ\"ג","NumHouse":"7","AccountType":" - תחנת מד\"א","lon":35.2001065,"lat":31.7904656},{"DateDonation":"2020-08-26T00:00:00","FromHour":"10:00","ToHour":"16:30","Name":"משביר י-ם","City":"ירושלים","Street":"המלך ג'ורג'","NumHouse":"20","AccountType":"","lon":35.1865447,"lat":31.7520627},{"DateDonation":"2020-08-27T00:00:00","FromHour":"10:00","ToHour":"16:30","Name":"משביר י-ם","City":"ירושלים","Street":"המלך ג'ורג'","NumHouse":"20","AccountType":"","lon":35.1865447,"lat":31.7520627},{"DateDonation":"2020-08-27T00:00:00","FromHour":"17:00","ToHour":"22:30","Name":"בנין המועצה                          ","City":"אלקנה","Street":"","NumHouse":"","AccountType":"","lon":35.032054,"lat":32.110566},{"DateDonation":"2020-08-27T00:00:00","FromHour":"08:00","ToHour":"14:30","Name":"","City":"רמת גן","Street":"בית חולים תה\"ש","NumHouse":"","AccountType":" - שרותי הדם מד\"א","lon":34.824785,"lat":32.068424},{"DateDonation":"2020-08-27T00:00:00","FromHour":"16:00","ToHour":"20:00","Name":"  מועדון המחלבה                                      ","City":"מרחביה מושב","Street":"","NumHouse":"","AccountType":"","lon":35.3167127,"lat":32.6029529},{"DateDonation":"2020-08-27T00:00:00","FromHour":"09:00","ToHour":"16:00","Name":"  המ'ג 7 רוממה                                       ","City":"ירושלים","Street":"המ\"ג","NumHouse":"7","AccountType":" - תחנת מד\"א","lon":35.2001065,"lat":31.7904656},{"DateDonation":"2020-08-28T00:00:00","FromHour":"08:00","ToHour":"12:30","Name":"  המ'ג 7 רוממה                                       ","City":"ירושלים","Street":"המ\"ג","NumHouse":"7","AccountType":" - תחנת מד\"א","lon":35.2001065,"lat":31.7904656},{"DateDonation":"2020-08-28T00:00:00","FromHour":"08:00","ToHour":"12:30","Name":"","City":"רמת גן","Street":"בית חולים תה\"ש","NumHouse":"","AccountType":" - שרותי הדם מד\"א","lon":34.824785,"lat":32.068424},{"DateDonation":"2020-08-28T00:00:00","FromHour":"08:00","ToHour":"12:30","Name":"","City":"חיפה","Street":"יצחק שדה","NumHouse":"10","AccountType":" - תחנת מד\"א","lon":34.989571,"lat":32.7940463},{"DateDonation":"2020-08-28T00:00:00","FromHour":"08:00","ToHour":"12:30","Name":"","City":"חולון","Street":"הרוקמים","NumHouse":"1","AccountType":" - תחנת מד\"א","lon":34.787384,"lat":32.015833},{"DateDonation":"2020-08-28T00:00:00","FromHour":"08:00","ToHour":"12:30","Name":"","City":"קרית מוצקין","Street":"החשמונאים","NumHouse":"75","AccountType":" - תחנת מד\"א","lon":35.079523,"lat":32.838202},{"DateDonation":"2020-08-28T00:00:00","FromHour":"08:00","ToHour":"12:30","Name":"","City":"רחובות","Street":"0363","NumHouse":"69","AccountType":" - תחנת מד\"א","lon":34.80682420000001,"lat":31.8933068},{"DateDonation":"2020-08-28T00:00:00","FromHour":"09:00","ToHour":"12:45","Name":"משביר י-ם","City":"ירושלים","Street":"המלך ג'ורג'","NumHouse":"20","AccountType":"","lon":35.1865447,"lat":31.7520627},{"DateDonation":"2020-08-28T00:00:00","FromHour":"08:30","ToHour":"12:30","Name":"תחנת מגן דוד אדום","City":"טבריה","Street":"הבנים מול מלון לאונרדו","NumHouse":"1","AccountType":" - תחנת מד\"א","lon":35.5407268,"lat":32.785899},{"DateDonation":"2020-08-30T00:00:00","FromHour":"10:00","ToHour":"16:30","Name":"משביר י-ם","City":"ירושלים","Street":"המלך ג'ורג'","NumHouse":"20","AccountType":"","lon":35.1865447,"lat":31.7520627},{"DateDonation":"2020-08-30T00:00:00","FromHour":"08:00","ToHour":"16:45","Name":"  המ'ג 7 רוממה                                       ","City":"ירושלים","Street":"המ\"ג","NumHouse":"7","AccountType":" - תחנת מד\"א","lon":35.2001065,"lat":31.7904656},{"DateDonation":"2020-08-30T00:00:00","FromHour":"08:00","ToHour":"14:30","Name":"","City":"רמת גן","Street":"בית חולים תה\"ש","NumHouse":"","AccountType":" - שרותי הדם מד\"א","lon":34.824785,"lat":32.068424},{"DateDonation":"2020-08-30T00:00:00","FromHour":"16:30","ToHour":"21:00","Name":"מרכז קהילתי פסגת השבע","City":"בית שמש","Street":"התבור","NumHouse":"18","AccountType":"","lon":34.9941639,"lat":31.744339},{"DateDonation":"2020-08-31T00:00:00","FromHour":"08:00","ToHour":"14:30","Name":"","City":"רמת גן","Street":"בית חולים תה\"ש","NumHouse":"","AccountType":" - שרותי הדם מד\"א","lon":34.824785,"lat":32.068424},{"DateDonation":"2020-08-31T00:00:00","FromHour":"10:00","ToHour":"16:30","Name":"משביר י-ם","City":"ירושלים","Street":"המלך ג'ורג'","NumHouse":"20","AccountType":"","lon":35.1865447,"lat":31.7520627},{"DateDonation":"2020-09-01T00:00:00","FromHour":"10:00","ToHour":"16:30","Name":"משביר י-ם","City":"ירושלים","Street":"המלך ג'ורג'","NumHouse":"20","AccountType":"","lon":35.1865447,"lat":31.7520627},{"DateDonation":"2020-09-01T00:00:00","FromHour":"08:00","ToHour":"18:00","Name":"","City":"רמת גן","Street":"בית חולים תה\"ש","NumHouse":"","AccountType":" - שרותי הדם מד\"א","lon":34.824785,"lat":32.068424},{"DateDonation":"2020-09-01T00:00:00","FromHour":"13:00","ToHour":"20:00","Name":"  המ'ג 7 רוממה                                       ","City":"ירושלים","Street":"המ\"ג","NumHouse":"7","AccountType":" - תחנת מד\"א","lon":35.2001065,"lat":31.7904656},{"DateDonation":"2020-09-02T00:00:00","FromHour":"09:00","ToHour":"16:00","Name":"  המ'ג 7 רוממה                                       ","City":"ירושלים","Street":"המ\"ג","NumHouse":"7","AccountType":" - תחנת מד\"א","lon":35.2001065,"lat":31.7904656},{"DateDonation":"2020-09-02T00:00:00","FromHour":"08:00","ToHour":"14:30","Name":"","City":"רמת גן","Street":"בית חולים תה\"ש","NumHouse":"","AccountType":" - שרותי הדם מד\"א","lon":34.824785,"lat":32.068424},{"DateDonation":"2020-09-02T00:00:00","FromHour":"10:00","ToHour":"16:30","Name":"משביר י-ם","City":"ירושלים","Street":"המלך ג'ורג'","NumHouse":"20","AccountType":"","lon":35.1865447,"lat":31.7520627},{"DateDonation":"2020-09-03T00:00:00","FromHour":"10:00","ToHour":"16:30","Name":"משביר י-ם","City":"ירושלים","Street":"המלך ג'ורג'","NumHouse":"20","AccountType":"","lon":35.1865447,"lat":31.7520627},{"DateDonation":"2020-09-03T00:00:00","FromHour":"08:00","ToHour":"14:30","Name":"","City":"רמת גן","Street":"בית חולים תה\"ש","NumHouse":"","AccountType":" - שרותי הדם מד\"א","lon":34.824785,"lat":32.068424},{"DateDonation":"2020-09-03T00:00:00","FromHour":"09:00","ToHour":"16:00","Name":"  המ'ג 7 רוממה                                       ","City":"ירושלים","Street":"המ\"ג","NumHouse":"7","AccountType":" - תחנת מד\"א","lon":35.2001065,"lat":31.7904656},{"DateDonation":"2020-09-03T00:00:00","FromHour":"16:00","ToHour":"21:00","Name":"נופי פרת","City":"","Street":"","NumHouse":"","AccountType":"","lon":35.319875,"lat":31.82351899999999},{"DateDonation":"2020-09-03T00:00:00","FromHour":"17:00","ToHour":"22:00","Name":"כפר ורבורג","City":"כפר ורבורג","Street":"","NumHouse":"","AccountType":"","lon":34.7324762,"lat":31.7164769},{"DateDonation":"2020-09-04T00:00:00","FromHour":"08:00","ToHour":"12:30","Name":"","City":"רחובות","Street":"0363","NumHouse":"69","AccountType":" - תחנת מד\"א","lon":34.80682420000001,"lat":31.8933068},{"DateDonation":"2020-09-04T00:00:00","FromHour":"08:00","ToHour":"12:30","Name":"","City":"קרית מוצקין","Street":"החשמונאים","NumHouse":"75","AccountType":" - תחנת מד\"א","lon":35.079523,"lat":32.838202},{"DateDonation":"2020-09-04T00:00:00","FromHour":"08:00","ToHour":"12:30","Name":"","City":"חולון","Street":"הרוקמים","NumHouse":"1","AccountType":" - תחנת מד\"א","lon":34.787384,"lat":32.015833},{"DateDonation":"2020-09-04T00:00:00","FromHour":"08:00","ToHour":"12:30","Name":"  המ'ג 7 רוממה                                       ","City":"ירושלים","Street":"המ\"ג","NumHouse":"7","AccountType":" - תחנת מד\"א","lon":35.2001065,"lat":31.7904656},{"DateDonation":"2020-09-04T00:00:00","FromHour":"08:00","ToHour":"12:30","Name":"","City":"חיפה","Street":"יצחק שדה","NumHouse":"10","AccountType":" - תחנת מד\"א","lon":34.989571,"lat":32.7940463},{"DateDonation":"2020-09-04T00:00:00","FromHour":"08:00","ToHour":"12:30","Name":"","City":"רמת גן","Street":"בית חולים תה\"ש","NumHouse":"","AccountType":" - שרותי הדם מד\"א","lon":34.824785,"lat":32.068424},{"DateDonation":"2020-09-04T00:00:00","FromHour":"09:00","ToHour":"12:45","Name":"משביר י-ם","City":"ירושלים","Street":"המלך ג'ורג'","NumHouse":"20","AccountType":"","lon":35.1865447,"lat":31.7520627},{"DateDonation":"2020-09-04T00:00:00","FromHour":"08:30","ToHour":"12:30","Name":"תחנת מגן דוד אדום","City":"טבריה","Street":"הבנים מול מלון לאונרדו","NumHouse":"1","AccountType":" - תחנת מד\"א","lon":35.5407268,"lat":32.785899},{"DateDonation":"2020-09-06T00:00:00","FromHour":"15:00","ToHour":"22:00","Name":"שכונת כרמים","City":"ראשון לציון","Street":"היקב","NumHouse":"9","AccountType":"","lon":34.7783232,"lat":31.97194439999999},{"DateDonation":"2020-09-06T00:00:00","FromHour":"10:00","ToHour":"16:30","Name":"משביר י-ם","City":"ירושלים","Street":"המלך ג'ורג'","NumHouse":"20","AccountType":"","lon":35.1865447,"lat":31.7520627},{"DateDonation":"2020-09-06T00:00:00","FromHour":"08:00","ToHour":"14:30","Name":"","City":"רמת גן","Street":"בית חולים תה\"ש","NumHouse":"","AccountType":" - שרותי הדם מד\"א","lon":34.824785,"lat":32.068424},{"DateDonation":"2020-09-06T00:00:00","FromHour":"08:00","ToHour":"16:45","Name":"  המ'ג 7 רוממה                                       ","City":"ירושלים","Street":"המ\"ג","NumHouse":"7","AccountType":" - תחנת מד\"א","lon":35.2001065,"lat":31.7904656},{"DateDonation":"2020-09-07T00:00:00","FromHour":"08:00","ToHour":"14:30","Name":"","City":"רמת גן","Street":"בית חולים תה\"ש","NumHouse":"","AccountType":" - שרותי הדם מד\"א","lon":34.824785,"lat":32.068424},{"DateDonation":"2020-09-07T00:00:00","FromHour":"10:00","ToHour":"16:30","Name":"משביר י-ם","City":"ירושלים","Street":"המלך ג'ורג'","NumHouse":"20","AccountType":"","lon":35.1865447,"lat":31.7520627},{"DateDonation":"2020-09-07T00:00:00","FromHour":"15:00","ToHour":"22:00","Name":"שכונת נחלת יהודה","City":"ראשון לציון","Street":"העצמאות ","NumHouse":"37","AccountType":"","lon":34.806893,"lat":31.982701},{"DateDonation":"2020-09-08T00:00:00","FromHour":"15:00","ToHour":"22:00","Name":"שכונת כלניות","City":"ראשון לציון","Street":"","NumHouse":"","AccountType":"","lon":34.8215908,"lat":31.9445994},{"DateDonation":"2020-09-08T00:00:00","FromHour":"10:00","ToHour":"16:30","Name":"משביר י-ם","City":"ירושלים","Street":"המלך ג'ורג'","NumHouse":"20","AccountType":"","lon":35.1865447,"lat":31.7520627},{"DateDonation":"2020-09-08T00:00:00","FromHour":"08:00","ToHour":"18:00","Name":"","City":"רמת גן","Street":"בית חולים תה\"ש","NumHouse":"","AccountType":" - שרותי הדם מד\"א","lon":34.824785,"lat":32.068424},{"DateDonation":"2020-09-08T00:00:00","FromHour":"13:00","ToHour":"20:00","Name":"  המ'ג 7 רוממה                                       ","City":"ירושלים","Street":"המ\"ג","NumHouse":"7","AccountType":" - תחנת מד\"א","lon":35.2001065,"lat":31.7904656},{"DateDonation":"2020-09-09T00:00:00","FromHour":"09:00","ToHour":"16:00","Name":"  המ'ג 7 רוממה                                       ","City":"ירושלים","Street":"המ\"ג","NumHouse":"7","AccountType":" - תחנת מד\"א","lon":35.2001065,"lat":31.7904656},{"DateDonation":"2020-09-09T00:00:00","FromHour":"08:00","ToHour":"14:30","Name":"","City":"רמת גן","Street":"בית חולים תה\"ש","NumHouse":"","AccountType":" - שרותי הדם מד\"א","lon":34.824785,"lat":32.068424},{"DateDonation":"2020-09-09T00:00:00","FromHour":"16:00","ToHour":"20:00","Name":"חדר אוכל                  ","City":"עין הנצי''ב","Street":"","NumHouse":"","AccountType":"","lon":35.501973,"lat":32.47071},{"DateDonation":"2020-09-09T00:00:00","FromHour":"10:00","ToHour":"16:30","Name":"משביר י-ם","City":"ירושלים","Street":"המלך ג'ורג'","NumHouse":"20","AccountType":"","lon":35.1865447,"lat":31.7520627},{"DateDonation":"2020-09-09T00:00:00","FromHour":"15:00","ToHour":"22:00","Name":"שכונת מרום ראשון","City":"ראשון לציון","Street":"תנועת הנוער","NumHouse":"2","AccountType":"","lon":34.8231817,"lat":31.97032059999999},{"DateDonation":"2020-09-10T00:00:00","FromHour":"10:00","ToHour":"16:30","Name":"משביר י-ם","City":"ירושלים","Street":"המלך ג'ורג'","NumHouse":"20","AccountType":"","lon":35.1865447,"lat":31.7520627},{"DateDonation":"2020-09-10T00:00:00","FromHour":"08:00","ToHour":"14:30","Name":"","City":"רמת גן","Street":"בית חולים תה\"ש","NumHouse":"","AccountType":" - שרותי הדם מד\"א","lon":34.824785,"lat":32.068424},{"DateDonation":"2020-09-10T00:00:00","FromHour":"09:00","ToHour":"16:00","Name":"  המ'ג 7 רוממה                                       ","City":"ירושלים","Street":"המ\"ג","NumHouse":"7","AccountType":" - תחנת מד\"א","lon":35.2001065,"lat":31.7904656},{"DateDonation":"2020-09-11T00:00:00","FromHour":"08:00","ToHour":"12:30","Name":"  המ'ג 7 רוממה                                       ","City":"ירושלים","Street":"המ\"ג","NumHouse":"7","AccountType":" - תחנת מד\"א","lon":35.2001065,"lat":31.7904656},{"DateDonation":"2020-09-11T00:00:00","FromHour":"08:00","ToHour":"12:30","Name":"","City":"חיפה","Street":"יצחק שדה","NumHouse":"10","AccountType":" - תחנת מד\"א","lon":34.989571,"lat":32.7940463},{"DateDonation":"2020-09-11T00:00:00","FromHour":"08:00","ToHour":"12:30","Name":"","City":"חולון","Street":"הרוקמים","NumHouse":"1","AccountType":" - תחנת מד\"א","lon":34.787384,"lat":32.015833},{"DateDonation":"2020-09-11T00:00:00","FromHour":"08:00","ToHour":"12:30","Name":"","City":"קרית מוצקין","Street":"החשמונאים","NumHouse":"75","AccountType":" - תחנת מד\"א","lon":35.079523,"lat":32.838202},{"DateDonation":"2020-09-11T00:00:00","FromHour":"08:00","ToHour":"12:30","Name":"","City":"רחובות","Street":"0363","NumHouse":"69","AccountType":" - תחנת מד\"א","lon":34.80682420000001,"lat":31.8933068},{"DateDonation":"2020-09-11T00:00:00","FromHour":"08:00","ToHour":"12:30","Name":"","City":"רמת גן","Street":"בית חולים תה\"ש","NumHouse":"","AccountType":" - שרותי הדם מד\"א","lon":34.824785,"lat":32.068424},{"DateDonation":"2020-09-11T00:00:00","FromHour":"09:00","ToHour":"12:45","Name":"משביר י-ם","City":"ירושלים","Street":"המלך ג'ורג'","NumHouse":"20","AccountType":"","lon":35.1865447,"lat":31.7520627},{"DateDonation":"2020-09-11T00:00:00","FromHour":"08:30","ToHour":"12:30","Name":"תחנת מגן דוד אדום","City":"טבריה","Street":"הבנים מול מלון לאונרדו","NumHouse":"1","AccountType":" - תחנת מד\"א","lon":35.5407268,"lat":32.785899},{"DateDonation":"2020-09-11T00:00:00","FromHour":"09:00","ToHour":"13:30","Name":"כורזין ליד בנק הפועלים","City":"גבעתיים","Street":"כורזין","NumHouse":"","AccountType":"","lon":34.8161391,"lat":32.0597995},{"DateDonation":"2020-09-13T00:00:00","FromHour":"10:00","ToHour":"16:30","Name":"משביר י-ם","City":"ירושלים","Street":"המלך ג'ורג'","NumHouse":"20","AccountType":"","lon":35.1865447,"lat":31.7520627},{"DateDonation":"2020-09-13T00:00:00","FromHour":"08:00","ToHour":"14:30","Name":"","City":"רמת גן","Street":"בית חולים תה\"ש","NumHouse":"","AccountType":" - שרותי הדם מד\"א","lon":34.824785,"lat":32.068424},{"DateDonation":"2020-09-13T00:00:00","FromHour":"08:00","ToHour":"16:45","Name":"  המ'ג 7 רוממה                                       ","City":"ירושלים","Street":"המ\"ג","NumHouse":"7","AccountType":" - תחנת מד\"א","lon":35.2001065,"lat":31.7904656},{"DateDonation":"2020-09-14T00:00:00","FromHour":"08:00","ToHour":"14:30","Name":"","City":"רמת גן","Street":"בית חולים תה\"ש","NumHouse":"","AccountType":" - שרותי הדם מד\"א","lon":34.824785,"lat":32.068424},{"DateDonation":"2020-09-14T00:00:00","FromHour":"10:00","ToHour":"16:30","Name":"משביר י-ם","City":"ירושלים","Street":"המלך ג'ורג'","NumHouse":"20","AccountType":"","lon":35.1865447,"lat":31.7520627},{"DateDonation":"2020-09-15T00:00:00","FromHour":"10:00","ToHour":"16:30","Name":"משביר י-ם","City":"ירושלים","Street":"המלך ג'ורג'","NumHouse":"20","AccountType":"","lon":35.1865447,"lat":31.7520627},{"DateDonation":"2020-09-15T00:00:00","FromHour":"13:00","ToHour":"20:00","Name":"  המ'ג 7 רוממה                                       ","City":"ירושלים","Street":"המ\"ג","NumHouse":"7","AccountType":" - תחנת מד\"א","lon":35.2001065,"lat":31.7904656},{"DateDonation":"2020-09-15T00:00:00","FromHour":"08:00","ToHour":"18:00","Name":"","City":"רמת גן","Street":"בית חולים תה\"ש","NumHouse":"","AccountType":" - שרותי הדם מד\"א","lon":34.824785,"lat":32.068424},{"DateDonation":"2020-09-16T00:00:00","FromHour":"08:00","ToHour":"14:30","Name":"","City":"רמת גן","Street":"בית חולים תה\"ש","NumHouse":"","AccountType":" - שרותי הדם מד\"א","lon":34.824785,"lat":32.068424},{"DateDonation":"2020-09-16T00:00:00","FromHour":"09:00","ToHour":"16:00","Name":"  המ'ג 7 רוממה                                       ","City":"ירושלים","Street":"המ\"ג","NumHouse":"7","AccountType":" - תחנת מד\"א","lon":35.2001065,"lat":31.7904656},{"DateDonation":"2020-09-16T00:00:00","FromHour":"10:00","ToHour":"16:30","Name":"משביר י-ם","City":"ירושלים","Street":"המלך ג'ורג'","NumHouse":"20","AccountType":"","lon":35.1865447,"lat":31.7520627},{"DateDonation":"2020-09-17T00:00:00","FromHour":"10:00","ToHour":"16:30","Name":"משביר י-ם","City":"ירושלים","Street":"המלך ג'ורג'","NumHouse":"20","AccountType":"","lon":35.1865447,"lat":31.7520627},{"DateDonation":"2020-09-17T00:00:00","FromHour":"09:00","ToHour":"16:00","Name":"  המ'ג 7 רוממה                                       ","City":"ירושלים","Street":"המ\"ג","NumHouse":"7","AccountType":" - תחנת מד\"א","lon":35.2001065,"lat":31.7904656},{"DateDonation":"2020-09-17T00:00:00","FromHour":"08:00","ToHour":"14:30","Name":"","City":"רמת גן","Street":"בית חולים תה\"ש","NumHouse":"","AccountType":" - שרותי הדם מד\"א","lon":34.824785,"lat":32.068424},{"DateDonation":"2020-09-17T00:00:00","FromHour":"16:00","ToHour":"22:00","Name":"  ביהכנ קהילה                                        ","City":"צור הדסה","Street":"","NumHouse":"","AccountType":"","lon":35.0967038,"lat":31.7157715},{"DateDonation":"2020-09-18T00:00:00","FromHour":"08:00","ToHour":"12:30","Name":"","City":"חיפה","Street":"יצחק שדה","NumHouse":"10","AccountType":" - תחנת מד\"א","lon":34.989571,"lat":32.7940463},{"DateDonation":"2020-09-18T00:00:00","FromHour":"08:00","ToHour":"12:30","Name":"","City":"רמת גן","Street":"בית חולים תה\"ש","NumHouse":"","AccountType":" - שרותי הדם מד\"א","lon":34.824785,"lat":32.068424},{"DateDonation":"2020-09-18T00:00:00","FromHour":"08:00","ToHour":"12:30","Name":"","City":"רחובות","Street":"0363","NumHouse":"69","AccountType":" - תחנת מד\"א","lon":34.80682420000001,"lat":31.8933068},{"DateDonation":"2020-09-18T00:00:00","FromHour":"08:00","ToHour":"12:30","Name":"","City":"קרית מוצקין","Street":"החשמונאים","NumHouse":"75","AccountType":" - תחנת מד\"א","lon":35.079523,"lat":32.838202},{"DateDonation":"2020-09-18T00:00:00","FromHour":"08:00","ToHour":"12:30","Name":"","City":"חולון","Street":"הרוקמים","NumHouse":"1","AccountType":" - תחנת מד\"א","lon":34.787384,"lat":32.015833},{"DateDonation":"2020-09-18T00:00:00","FromHour":"08:00","ToHour":"12:30","Name":"  המ'ג 7 רוממה                                       ","City":"ירושלים","Street":"המ\"ג","NumHouse":"7","AccountType":" - תחנת מד\"א","lon":35.2001065,"lat":31.7904656},{"DateDonation":"2020-09-18T00:00:00","FromHour":"09:00","ToHour":"12:45","Name":"משביר י-ם","City":"ירושלים","Street":"המלך ג'ורג'","NumHouse":"20","AccountType":"","lon":35.1865447,"lat":31.7520627},{"DateDonation":"2020-09-18T00:00:00","FromHour":"08:30","ToHour":"12:30","Name":"תחנת מגן דוד אדום","City":"טבריה","Street":"הבנים מול מלון לאונרדו","NumHouse":"1","AccountType":" - תחנת מד\"א","lon":35.5407268,"lat":32.785899},{"DateDonation":"2020-09-21T00:00:00","FromHour":"10:00","ToHour":"16:30","Name":"משביר י-ם","City":"ירושלים","Street":"המלך ג'ורג'","NumHouse":"20","AccountType":"","lon":35.1865447,"lat":31.7520627},{"DateDonation":"2020-09-21T00:00:00","FromHour":"08:00","ToHour":"14:30","Name":"","City":"רמת גן","Street":"בית חולים תה\"ש","NumHouse":"","AccountType":" - שרותי הדם מד\"א","lon":34.824785,"lat":32.068424},{"DateDonation":"2020-09-22T00:00:00","FromHour":"08:00","ToHour":"18:00","Name":"","City":"רמת גן","Street":"בית חולים תה\"ש","NumHouse":"","AccountType":" - שרותי הדם מד\"א","lon":34.824785,"lat":32.068424},{"DateDonation":"2020-09-22T00:00:00","FromHour":"10:00","ToHour":"16:00","Name":"","City":"תל אביב יפו","Street":"דרך מנחם בגין","NumHouse":"125","AccountType":"","lon":34.78176759999999,"lat":32.0852999},{"DateDonation":"2020-09-22T00:00:00","FromHour":"10:00","ToHour":"16:30","Name":"משביר י-ם","City":"ירושלים","Street":"המלך ג'ורג'","NumHouse":"20","AccountType":"","lon":35.1865447,"lat":31.7520627},{"DateDonation":"2020-09-22T00:00:00","FromHour":"13:00","ToHour":"20:00","Name":"  המ'ג 7 רוממה                                       ","City":"ירושלים","Street":"המ\"ג","NumHouse":"7","AccountType":" - תחנת מד\"א","lon":35.2001065,"lat":31.7904656},{"DateDonation":"2020-09-23T00:00:00","FromHour":"09:00","ToHour":"16:00","Name":"  המ'ג 7 רוממה                                       ","City":"ירושלים","Street":"המ\"ג","NumHouse":"7","AccountType":" - תחנת מד\"א","lon":35.2001065,"lat":31.7904656},{"DateDonation":"2020-09-23T00:00:00","FromHour":"10:00","ToHour":"16:30","Name":"משביר י-ם","City":"ירושלים","Street":"המלך ג'ורג'","NumHouse":"20","AccountType":"","lon":35.1865447,"lat":31.7520627},{"DateDonation":"2020-09-23T00:00:00","FromHour":"08:00","ToHour":"14:30","Name":"","City":"רמת גן","Street":"בית חולים תה\"ש","NumHouse":"","AccountType":" - שרותי הדם מד\"א","lon":34.824785,"lat":32.068424},{"DateDonation":"2020-09-24T00:00:00","FromHour":"08:00","ToHour":"14:30","Name":"","City":"רמת גן","Street":"בית חולים תה\"ש","NumHouse":"","AccountType":" - שרותי הדם מד\"א","lon":34.824785,"lat":32.068424},{"DateDonation":"2020-09-24T00:00:00","FromHour":"10:00","ToHour":"16:30","Name":"משביר י-ם","City":"ירושלים","Street":"המלך ג'ורג'","NumHouse":"20","AccountType":"","lon":35.1865447,"lat":31.7520627},{"DateDonation":"2020-09-24T00:00:00","FromHour":"09:00","ToHour":"16:00","Name":"  המ'ג 7 רוממה                                       ","City":"ירושלים","Street":"המ\"ג","NumHouse":"7","AccountType":" - תחנת מד\"א","lon":35.2001065,"lat":31.7904656},{"DateDonation":"2020-09-25T00:00:00","FromHour":"08:00","ToHour":"12:30","Name":"  המ'ג 7 רוממה                                       ","City":"ירושלים","Street":"המ\"ג","NumHouse":"7","AccountType":" - תחנת מד\"א","lon":35.2001065,"lat":31.7904656},{"DateDonation":"2020-09-25T00:00:00","FromHour":"09:00","ToHour":"12:45","Name":"משביר י-ם","City":"ירושלים","Street":"המלך ג'ורג'","NumHouse":"20","AccountType":"","lon":35.1865447,"lat":31.7520627},{"DateDonation":"2020-09-25T00:00:00","FromHour":"08:30","ToHour":"12:30","Name":"תחנת מגן דוד אדום","City":"טבריה","Street":"הבנים מול מלון לאונרדו","NumHouse":"1","AccountType":" - תחנת מד\"א","lon":35.5407268,"lat":32.785899},{"DateDonation":"2020-09-25T00:00:00","FromHour":"08:30","ToHour":"14:00","Name":"קניון איילון-שער ירקון","City":"רמת גן","Street":"","NumHouse":"","AccountType":"","lon":34.8267718,"lat":32.1003382},{"DateDonation":"2020-09-25T00:00:00","FromHour":"08:00","ToHour":"12:30","Name":"","City":"רמת גן","Street":"בית חולים תה\"ש","NumHouse":"","AccountType":" - שרותי הדם מד\"א","lon":34.824785,"lat":32.068424},{"DateDonation":"2020-09-25T00:00:00","FromHour":"08:00","ToHour":"12:30","Name":"","City":"קרית מוצקין","Street":"החשמונאים","NumHouse":"75","AccountType":" - תחנת מד\"א","lon":35.079523,"lat":32.838202},{"DateDonation":"2020-09-25T00:00:00","FromHour":"08:00","ToHour":"12:30","Name":"","City":"רחובות","Street":"0363","NumHouse":"69","AccountType":" - תחנת מד\"א","lon":34.80682420000001,"lat":31.8933068},{"DateDonation":"2020-09-25T00:00:00","FromHour":"08:00","ToHour":"12:30","Name":"","City":"חולון","Street":"הרוקמים","NumHouse":"1","AccountType":" - תחנת מד\"א","lon":34.787384,"lat":32.015833},{"DateDonation":"2020-09-25T00:00:00","FromHour":"08:00","ToHour":"12:30","Name":"","City":"חיפה","Street":"יצחק שדה","NumHouse":"10","AccountType":" - תחנת מד\"א","lon":34.989571,"lat":32.7940463},{"DateDonation":"2020-09-27T00:00:00","FromHour":"08:00","ToHour":"16:45","Name":"  המ'ג 7 רוממה                                       ","City":"ירושלים","Street":"המ\"ג","NumHouse":"7","AccountType":" - תחנת מד\"א","lon":35.2001065,"lat":31.7904656},{"DateDonation":"2020-09-27T00:00:00","FromHour":"08:00","ToHour":"14:30","Name":"","City":"רמת גן","Street":"בית חולים תה\"ש","NumHouse":"","AccountType":" - שרותי הדם מד\"א","lon":34.824785,"lat":32.068424},{"DateDonation":"2020-09-27T00:00:00","FromHour":"10:00","ToHour":"16:30","Name":"משביר י-ם","City":"ירושלים","Street":"המלך ג'ורג'","NumHouse":"20","AccountType":"","lon":35.1865447,"lat":31.7520627},{"DateDonation":"2020-09-29T00:00:00","FromHour":"10:00","ToHour":"16:30","Name":"משביר י-ם","City":"ירושלים","Street":"המלך ג'ורג'","NumHouse":"20","AccountType":"","lon":35.1865447,"lat":31.7520627},{"DateDonation":"2020-09-29T00:00:00","FromHour":"08:00","ToHour":"18:00","Name":"","City":"רמת גן","Street":"בית חולים תה\"ש","NumHouse":"","AccountType":" - שרותי הדם מד\"א","lon":34.824785,"lat":32.068424},{"DateDonation":"2020-09-29T00:00:00","FromHour":"13:00","ToHour":"20:00","Name":"  המ'ג 7 רוממה                                       ","City":"ירושלים","Street":"המ\"ג","NumHouse":"7","AccountType":" - תחנת מד\"א","lon":35.2001065,"lat":31.7904656},{"DateDonation":"2020-09-30T00:00:00","FromHour":"09:00","ToHour":"16:00","Name":"  המ'ג 7 רוממה                                       ","City":"ירושלים","Street":"המ\"ג","NumHouse":"7","AccountType":" - תחנת מד\"א","lon":35.2001065,"lat":31.7904656},{"DateDonation":"2020-09-30T00:00:00","FromHour":"08:00","ToHour":"14:30","Name":"","City":"רמת גן","Street":"בית חולים תה\"ש","NumHouse":"","AccountType":" - שרותי הדם מד\"א","lon":34.824785,"lat":32.068424},{"DateDonation":"2020-09-30T00:00:00","FromHour":"10:00","ToHour":"16:30","Name":"משביר י-ם","City":"ירושלים","Street":"המלך ג'ורג'","NumHouse":"20","AccountType":"","lon":35.1865447,"lat":31.7520627},{"DateDonation":"2020-10-11T00:00:00","FromHour":"14:30","ToHour":"21:00","Name":"קרית עקרון                                       ","City":"קרית עקרון","Street":"הרצל","NumHouse":"44","AccountType":"","lon":34.8166232,"lat":31.8648919},{"DateDonation":"2020-10-16T00:00:00","FromHour":"08:30","ToHour":"14:00","Name":"רחבת הבנים                                     ","City":"הוד השרון","Street":"הבנים","NumHouse":"","AccountType":"","lon":34.8845912,"lat":32.1562671},{"DateDonation":"2020-10-16T00:00:00","FromHour":"08:30","ToHour":"14:00","Name":"רחבת הבנים                                     ","City":"הוד השרון","Street":"הבנים","NumHouse":"","AccountType":"","lon":34.8845912,"lat":32.1562671},{"DateDonation":"2020-10-16T00:00:00","FromHour":"08:30","ToHour":"14:00","Name":"  מגדיאל                                             ","City":"הוד השרון","Street":"מגדיאל","NumHouse":"67","AccountType":"","lon":34.90079600000001,"lat":32.161717},{"DateDonation":"2020-10-16T00:00:00","FromHour":"09:00","ToHour":"13:30","Name":"כורזין ליד בנק הפועלים","City":"גבעתיים","Street":"כורזין","NumHouse":"","AccountType":"","lon":34.8161391,"lat":32.0597995},{"DateDonation":"2020-10-20T00:00:00","FromHour":"16:00","ToHour":"22:00","Name":"המתנ\"ס החדש ","City":"צורן","Street":"דרך לב השרון פינת השקמה ","NumHouse":"","AccountType":"","lon":34.919297,"lat":32.277644},{"DateDonation":"2020-11-13T00:00:00","FromHour":"09:00","ToHour":"13:30","Name":"כורזין ליד בנק הפועלים","City":"גבעתיים","Street":"כורזין","NumHouse":"","AccountType":"","lon":34.8161391,"lat":32.0597995},{"DateDonation":"2020-12-04T00:00:00","FromHour":"09:00","ToHour":"13:30","Name":"כורזין ליד בנק הפועלים","City":"גבעתיים","Street":"כורזין","NumHouse":"","AccountType":"","lon":34.8161391,"lat":32.0597995},{"DateDonation":"2021-01-15T00:00:00","FromHour":"09:00","ToHour":"13:30","Name":"כורזין ליד בנק הפועלים","City":"גבעתיים","Street":"כורזין","NumHouse":"","AccountType":"","lon":34.8161391,"lat":32.0597995},{"DateDonation":"2021-01-18T00:00:00","FromHour":"08:30","ToHour":"14:00","Name":"בי\"ס אלדד נתניה","City":"נתניה","Street":"ש\"ד גולדה מאיר","NumHouse":"109","AccountType":"","lon":34.8547964,"lat":32.2779609},{"DateDonation":"2021-02-12T00:00:00","FromHour":"09:00","ToHour":"13:30","Name":"כורזין ליד בנק הפועלים","City":"גבעתיים","Street":"כורזין","NumHouse":"","AccountType":"","lon":34.8161391,"lat":32.0597995},{"DateDonation":"2021-03-19T00:00:00","FromHour":"09:00","ToHour":"13:30","Name":"כורזין ליד בנק הפועלים","City":"גבעתיים","Street":"כורזין","NumHouse":"","AccountType":"","lon":34.8161391,"lat":32.0597995},{"DateDonation":"2021-04-23T00:00:00","FromHour":"09:00","ToHour":"13:30","Name":"כורזין ליד בנק הפועלים","City":"גבעתיים","Street":"כורזין","NumHouse":"","AccountType":"","lon":34.8161391,"lat":32.0597995},{"DateDonation":"2021-05-14T00:00:00","FromHour":"08:30","ToHour":"14:00","Name":"  רחבת הבנים                                         ","City":"הוד השרון","Street":"הבנים","NumHouse":"","AccountType":"","lon":34.8845912,"lat":32.1562671},{"DateDonation":"2021-05-14T00:00:00","FromHour":"08:30","ToHour":"14:00","Name":"  מגדיאל                                             ","City":"הוד השרון","Street":"מגדיאל","NumHouse":"67","AccountType":"","lon":34.90079600000001,"lat":32.161717},{"DateDonation":"2021-05-14T00:00:00","FromHour":"08:30","ToHour":"14:00","Name":"  מגדיאל                                             ","City":"הוד השרון","Street":"מגדיאל","NumHouse":"67","AccountType":"","lon":34.90079600000001,"lat":32.161717},{"DateDonation":"2021-05-14T00:00:00","FromHour":"08:30","ToHour":"14:00","Name":"  רחבת הבנים                                         ","City":"הוד השרון","Street":"הבנים","NumHouse":"","AccountType":"","lon":34.8845912,"lat":32.1562671},{"DateDonation":"2021-05-21T00:00:00","FromHour":"09:00","ToHour":"13:30","Name":"כורזין ליד בנק הפועלים","City":"גבעתיים","Street":"כורזין","NumHouse":"","AccountType":"","lon":34.8161391,"lat":32.0597995},{"DateDonation":"2021-06-18T00:00:00","FromHour":"09:00","ToHour":"13:30","Name":"כורזין ליד בנק הפועלים","City":"גבעתיים","Street":"כורזין","NumHouse":"","AccountType":"","lon":34.8161391,"lat":32.0597995},{"DateDonation":"2021-07-16T00:00:00","FromHour":"09:00","ToHour":"13:30","Name":"כורזין ליד בנק הפועלים","City":"גבעתיים","Street":"כורזין","NumHouse":"","AccountType":"","lon":34.8161391,"lat":32.0597995},{"DateDonation":"2021-08-13T00:00:00","FromHour":"09:00","ToHour":"13:30","Name":"כורזין ליד בנק הפועלים","City":"גבעתיים","Street":"כורזין","NumHouse":"","AccountType":"","lon":34.8161391,"lat":32.0597995}],"ok":true,"message":"","code":200,"lastUpdateToGelocation":"2020-08-05T13:08:02.886Z"}